{
"type": "FeatureCollection",
"crs": { "type": "name", "properties": { "name": "urn:ogc:def:crs:OGC:1.3:CRS84" } },
"features": [
{ "type": "Feature", "properties": { "City": "Adelaide", "LAT": -34.9285, "LNG": 138.6007, "2004_1": 6.2, "2005_1": 6.5, "2006_1": 6.5, "2007_1": 6.5, "2008_1": 7.1, "2009_1": 7.4, "2010_1": 7.1, "2011_1": 6.7, "2012_1": 6.5, "2013_1": 6.3, "2014_1": 6.4, "2015_1": 6.4, "2016_1": 6.6 }, "geometry": { "type": "Point", "coordinates": [ 138.6007, -34.9285 ] } },
{ "type": "Feature", "properties": { "City": "Alice Springs", "LAT": -26.698, "LNG": 133.8807, "2004_1": null, "2005_1": null, "2006_1": null, "2007_1": null, "2008_1": null, "2009_1": null, "2010_1": 6.3, "2011_1": 5.5, "2012_1": 5.6, "2013_1": 4.8, "2014_1": 4.5, "2015_1": 4.6, "2016_1": 4.3 }, "geometry": { "type": "Point", "coordinates": [ 133.8807, -26.698 ] } },
{ "type": "Feature", "properties": { "City": "Ballarat", "LAT": -37.5622, "LNG": 143.8503, "2004_1": null, "2005_1": null, "2006_1": null, "2007_1": 5.0, "2008_1": 5.0, "2009_1": 4.9, "2010_1": 5.3, "2011_1": 5.5, "2012_1": 5.4, "2013_1": 5.5, "2014_1": 5.3, "2015_1": 5.7, "2016_1": 5.5 }, "geometry": { "type": "Point", "coordinates": [ 143.8503, -37.5622 ] } },
{ "type": "Feature", "properties": { "City": "Bendigo", "LAT": -36.757, "LNG": 144.2794, "2004_1": null, "2005_1": null, "2006_1": null, "2007_1": 5.0, "2008_1": 4.8, "2009_1": null, "2010_1": 5.9, "2011_1": 5.4, "2012_1": 5.7, "2013_1": 6.0, "2014_1": 5.9, "2015_1": 6.0, "2016_1": 5.7 }, "geometry": { "type": "Point", "coordinates": [ 144.2794, -36.757 ] } },
{ "type": "Feature", "properties": { "City": "Brisbane", "LAT": -27.4698, "LNG": 153.0251, "2004_1": 6.0, "2005_1": 6.0, "2006_1": 6.1, "2007_1": 6.4, "2008_1": 6.3, "2009_1": 6.7, "2010_1": 6.6, "2011_1": 6.0, "2012_1": 5.8, "2013_1": 5.8, "2014_1": 6.0, "2015_1": 6.1, "2016_1": 6.2 }, "geometry": { "type": "Point", "coordinates": [ 153.0251, -27.4698 ] } },
{ "type": "Feature", "properties": { "City": "Bundaberg", "LAT": -24.867, "LNG": 152.351, "2004_1": null, "2005_1": null, "2006_1": null, "2007_1": 7.0, "2008_1": 7.2, "2009_1": 7.0, "2010_1": 6.6, "2011_1": 6.2, "2012_1": 6.5, "2013_1": 5.7, "2014_1": 5.7, "2015_1": 5.6, "2016_1": 5.6 }, "geometry": { "type": "Point", "coordinates": [ 152.351, -24.867 ] } },
{ "type": "Feature", "properties": { "City": "Cairns", "LAT": -16.9186, "LNG": 145.7781, "2004_1": null, "2005_1": null, "2006_1": null, "2007_1": 6.4, "2008_1": 6.1, "2009_1": 5.9, "2010_1": 5.7, "2011_1": 5.2, "2012_1": 5.6, "2013_1": 5.5, "2014_1": 5.8, "2015_1": 6.1, "2016_1": 5.9 }, "geometry": { "type": "Point", "coordinates": [ 145.7781, -16.9186 ] } },
{ "type": "Feature", "properties": { "City": "Canberra", "LAT": -35.2809, "LNG": 149.13, "2004_1": 5.6, "2005_1": 4.8, "2006_1": 4.9, "2007_1": 5.3, "2008_1": 5.1, "2009_1": 5.8, "2010_1": 5.6, "2011_1": 4.9, "2012_1": 5.1, "2013_1": 5.3, "2014_1": 5.2, "2015_1": 5.9, "2016_1": 6.2 }, "geometry": { "type": "Point", "coordinates": [ 149.13, -35.2809 ] } },
{ "type": "Feature", "properties": { "City": "Coff's Harbour", "LAT": -30.2986, "LNG": 153.1094, "2004_1": null, "2005_1": null, "2006_1": null, "2007_1": null, "2008_1": null, "2009_1": null, "2010_1": 9.1, "2011_1": 8.3, "2012_1": 8.0, "2013_1": 7.1, "2014_1": 7.5, "2015_1": 7.7, "2016_1": 7.9 }, "geometry": { "type": "Point", "coordinates": [ 153.1094, -30.2986 ] } },
{ "type": "Feature", "properties": { "City": "Darwin", "LAT": -12.4634, "LNG": 130.8456, "2004_1": 4.0, "2005_1": 4.3, "2006_1": 5.6, "2007_1": 5.9, "2008_1": 5.9, "2009_1": 7.1, "2010_1": 6.4, "2011_1": 6.1, "2012_1": 5.2, "2013_1": 6.5, "2014_1": 6.3, "2015_1": 6.0, "2016_1": 4.8 }, "geometry": { "type": "Point", "coordinates": [ 130.8456, -12.4634 ] } },
{ "type": "Feature", "properties": { "City": "Geelong", "LAT": -38.1499, "LNG": 144.3617, "2004_1": null, "2005_1": null, "2006_1": null, "2007_1": 6.3, "2008_1": 6.0, "2009_1": 6.0, "2010_1": 7.4, "2011_1": 7.1, "2012_1": 6.5, "2013_1": 7.3, "2014_1": 6.9, "2015_1": 7.1, "2016_1": 7.2 }, "geometry": { "type": "Point", "coordinates": [ 144.3617, -38.1499 ] } },
{ "type": "Feature", "properties": { "City": "Gold Coast", "LAT": -28.0167, "LNG": 153.4, "2004_1": null, "2005_1": null, "2006_1": null, "2007_1": 8.6, "2008_1": 8.7, "2009_1": 8.6, "2010_1": 7.7, "2011_1": 7.6, "2012_1": 7.6, "2013_1": 7.7, "2014_1": 7.8, "2015_1": 8.6, "2016_1": 9.0 }, "geometry": { "type": "Point", "coordinates": [ 153.4, -28.0167 ] } },
{ "type": "Feature", "properties": { "City": "Hobart", "LAT": -42.8821, "LNG": 147.3272, "2004_1": 6.2, "2005_1": 6.6, "2006_1": 7.0, "2007_1": 6.3, "2008_1": 6.2, "2009_1": 6.8, "2010_1": 5.3, "2011_1": 5.9, "2012_1": 6.0, "2013_1": 5.4, "2014_1": 5.3, "2015_1": 5.6, "2016_1": 5.5 }, "geometry": { "type": "Point", "coordinates": [ 147.3272, -42.8821 ] } },
{ "type": "Feature", "properties": { "City": "Launceston", "LAT": -41.4332, "LNG": 147.1441, "2004_1": null, "2005_1": null, "2006_1": null, "2007_1": 5.7, "2008_1": 5.6, "2009_1": 6.1, "2010_1": 4.5, "2011_1": 4.5, "2012_1": 5.3, "2013_1": 4.7, "2014_1": 4.6, "2015_1": 4.7, "2016_1": 5.1 }, "geometry": { "type": "Point", "coordinates": [ 147.1441, -41.4332 ] } },
{ "type": "Feature", "properties": { "City": "Mackay", "LAT": -21.1425, "LNG": 149.1821, "2004_1": null, "2005_1": null, "2006_1": null, "2007_1": 6.1, "2008_1": 5.8, "2009_1": 5.9, "2010_1": 5.6, "2011_1": 5.6, "2012_1": 5.3, "2013_1": 4.9, "2014_1": 4.4, "2015_1": 3.9, "2016_1": 3.5 }, "geometry": { "type": "Point", "coordinates": [ 149.1821, -21.1425 ] } },
{ "type": "Feature", "properties": { "City": "Melbourne", "LAT": -37.8136, "LNG": 144.9631, "2004_1": 6.9, "2005_1": 6.4, "2006_1": 6.6, "2007_1": 7.3, "2008_1": 7.1, "2009_1": 8.0, "2010_1": 9.0, "2011_1": 8.4, "2012_1": 7.5, "2013_1": 8.4, "2014_1": 8.7, "2015_1": 9.7, "2016_1": 9.5 }, "geometry": { "type": "Point", "coordinates": [ 144.9631, -37.8136 ] } },
{ "type": "Feature", "properties": { "City": "Newcastle", "LAT": -32.9565, "LNG": 151.6772, "2004_1": null, "2005_1": null, "2006_1": null, "2007_1": 6.3, "2008_1": 6.6, "2009_1": 7.2, "2010_1": 7.0, "2011_1": 6.7, "2012_1": 6.1, "2013_1": 6.0, "2014_1": 6.2, "2015_1": 6.4, "2016_1": 6.6 }, "geometry": { "type": "Point", "coordinates": [ 151.6772, -32.9565 ] } },
{ "type": "Feature", "properties": { "City": "Perth", "LAT": -31.9505, "LNG": 115.8605, "2004_1": 5.4, "2005_1": 6.1, "2006_1": 8.0, "2007_1": 7.6, "2008_1": 6.4, "2009_1": 6.9, "2010_1": 6.3, "2011_1": 5.7, "2012_1": 5.9, "2013_1": 6.0, "2014_1": 6.1, "2015_1": 6.6, "2016_1": 6.1 }, "geometry": { "type": "Point", "coordinates": [ 115.8605, -31.9505 ] } },
{ "type": "Feature", "properties": { "City": "Rockhampton", "LAT": -23.3791, "LNG": 150.51, "2004_1": null, "2005_1": null, "2006_1": null, "2007_1": 5.9, "2008_1": 5.9, "2009_1": null, "2010_1": 5.4, "2011_1": null, "2012_1": 4.9, "2013_1": 4.8, "2014_1": 4.5, "2015_1": 4.0, "2016_1": 4.1 }, "geometry": { "type": "Point", "coordinates": [ 150.51, -23.3791 ] } },
{ "type": "Feature", "properties": { "City": "Sunshine Coast", "LAT": -26.65, "LNG": 153.0667, "2004_1": null, "2005_1": null, "2006_1": null, "2007_1": 9.3, "2008_1": 9.6, "2009_1": 9.0, "2010_1": 8.4, "2011_1": 7.5, "2012_1": 8.0, "2013_1": 8.0, "2014_1": 8.3, "2015_1": 8.7, "2016_1": 9.0 }, "geometry": { "type": "Point", "coordinates": [ 153.0667, -26.65 ] } },
{ "type": "Feature", "properties": { "City": "Sydney", "LAT": -33.8688, "LNG": 151.2093, "2004_1": 8.8, "2005_1": 8.5, "2006_1": 8.5, "2007_1": 8.6, "2008_1": 8.3, "2009_1": 9.1, "2010_1": 9.6, "2011_1": 9.2, "2012_1": 8.3, "2013_1": 9.0, "2014_1": 9.8, "2015_1": 12.2, "2016_1": 12.2 }, "geometry": { "type": "Point", "coordinates": [ 151.2093, -33.8688 ] } },
{ "type": "Feature", "properties": { "City": "Toowoomba", "LAT": -27.5598, "LNG": 151.9507, "2004_1": null, "2005_1": null, "2006_1": null, "2007_1": 5.2, "2008_1": 5.1, "2009_1": 5.4, "2010_1": 5.2, "2011_1": 4.7, "2012_1": 5.3, "2013_1": 5.4, "2014_1": 5.7, "2015_1": 5.9, "2016_1": 5.5 }, "geometry": { "type": "Point", "coordinates": [ 151.9507, -27.5598 ] } },
{ "type": "Feature", "properties": { "City": "Townsville", "LAT": -19.259, "LNG": 146.8169, "2004_1": null, "2005_1": null, "2006_1": null, "2007_1": 6.2, "2008_1": 5.7, "2009_1": 5.8, "2010_1": 5.4, "2011_1": 5.1, "2012_1": 4.8, "2013_1": 4.5, "2014_1": 4.3, "2015_1": 4.3, "2016_1": 4.1 }, "geometry": { "type": "Point", "coordinates": [ 146.8169, -19.259 ] } },
{ "type": "Feature", "properties": { "City": "Wollongong", "LAT": -34.4278, "LNG": 150.8931, "2004_1": null, "2005_1": null, "2006_1": null, "2007_1": 7.0, "2008_1": 6.8, "2009_1": 7.5, "2010_1": 7.2, "2011_1": 6.9, "2012_1": 7.5, "2013_1": 6.9, "2014_1": 7.5, "2015_1": 8.3, "2016_1": 8.9 }, "geometry": { "type": "Point", "coordinates": [ 150.8931, -34.4278 ] } },
{ "type": "Feature", "properties": { "City": "Wagga Wagga", "LAT": -35.1082, "LNG": 147.3598, "2004_1": null, "2005_1": null, "2006_1": null, "2007_1": 5.5, "2008_1": 4.9, "2009_1": null, "2010_1": 5.8, "2011_1": 5.2, "2012_1": 4.9, "2013_1": 5.3, "2014_1": 4.8, "2015_1": 4.8, "2016_1": 4.9 }, "geometry": { "type": "Point", "coordinates": [ 147.3598, -35.1082 ] } }
]
}
